date,time,latitude,longitude,projection_x_coordinate,projection_y_coordinate,horizontalAccuracy,llhPositionValidFlags,roll,pitch,yaw,surge_velocity,sway_velocity,heave_velocity,speedAccuracy,headingAccuracy,nedVelocityValidFlags,roll_rate,pitch_rate,yaw_rate,surge_acceleration,sway_acceleration,heave_acceleration,azimuth_angle_reference,RL_azimuth_angle,FL_azimuth_angle,RR_azimuth_angle,FR_azimuth_angle,thruster_speed_reference,RL_thruster_speed,FL_thruster_speed,RR_thruster_speed,FR_thruster_speed,RL_thruster_force,FL_thruster_force,RR_thruster_force,FR_thruster_force,RL_thruster_current,FL_thruster_current,RR_thruster_current,FR_thruster_current
date,time,latitude,longitude,projection_x_coordinate,projection_y_coordinate,horizontalAccuracy,llhPositionValidFlags,platform_roll,platform_pitch,platform_yaw,platform_surge_rate_fore,platform_sway_rate_starboard,platform_heave_rate_down,platform_speed_accuracy,platform_track,platform_speed_validity,platform_roll_rate,platform_pitch_rate,platform_yaw_rate,platform_surge_acceleration_fore,platform_sway_acceleration_starboard,platform_heave_acceleration_down,azimuth_angle_reference,azimuth_angle,azimuth_angle,azimuth_angle,azimuth_angle,thruster_speed_reference,thruster_speed,thruster_speed,thruster_speed,thruster_speed,thruster_force,thruster_force,thruster_force,thruster_force,thruster_current,thruster_current,thruster_current,thruster_current
20220914,134036.000,45.43684500,12.35507500,-55.01,29.16,1.64200000,1,3.71,2.88,-152.94,0.20,0.00,0.00,0.190,9.137,1,1.49,-3.51,-0.06,-0.66,0.27,-9.79,0.00,12.05,-12.05,12.05,-12.05,0.00,1684.80,1603.80,1603.80,1563.30,11.60,10.51,10.51,9.99,3.28,3.22,2.86,3.31
20220914,134036.000,45.43684500,12.35507500,-55.01,29.16,1.64200000,1,3.88,2.42,-152.85,0.20,0.00,0.00,0.190,9.137,1,3.64,-4.74,0.66,-0.21,0.36,-9.58,30.00,12.52,-12.50,12.53,-12.51,1600.00,1692.90,1603.80,1611.90,1563.30,11.71,10.51,10.62,9.99,3.23,3.21,2.86,3.31
20220914,134036.000,45.43684500,12.35507500,-55.01,29.16,1.64200000,1,4.24,1.92,-152.82,0.20,0.00,0.00,0.190,9.137,1,3.30,-4.44,0.46,0.22,0.86,-9.40,30.00,12.44,-12.44,12.44,-12.44,1600.00,1684.80,1603.80,1611.90,1563.30,11.60,10.51,10.62,9.99,3.20,3.21,2.86,3.31
20220914,134036.249,45.43684200,12.35507300,-55.34,29.01,1.63900000,1,4.43,1.52,-152.86,0.19,0.00,0.00,0.190,9.630,1,1.68,-2.90,-0.00,-0.36,0.53,-9.59,30.00,7.22,-8.39,5.85,-7.22,1600.00,1684.80,1603.80,1611.90,1563.30,11.60,10.51,10.62,9.99,3.21,3.20,2.87,3.32
20220914,134036.249,45.43684200,12.35507300,-55.34,29.01,1.63900000,1,4.59,1.26,-152.86,0.19,0.00,0.00,0.190,9.630,1,1.82,-0.40,1.94,0.22,0.85,-9.75,30.00,-4.54,3.34,-4.64,4.56,1600.00,1660.50,1595.70,1595.70,1555.20,11.27,10.41,10.41,9.89,3.06,3.14,2.81,3.25
20220914,134036.499,45.43684000,12.35507000,-55.57,28.77,1.63500000,1,4.62,1.28,-152.70,0.18,0.00,0.00,0.180,8.888,1,-2.13,2.26,4.15,-0.08,1.03,-9.69,30.00,-16.29,15.05,-16.38,16.38,1600.00,1652.40,1579.50,1587.60,1539.00,11.16,10.20,10.30,9.68,3.11,3.10,2.79,3.21
20220914,134036.499,45.43684000,12.35507000,-55.57,28.77,1.63500000,1,4.25,1.49,-152.28,0.17,0.00,0.00,0.180,8.888,1,-5.50,3.00,5.84,-0.07,0.56,-9.75,30.00,-28.03,26.81,-28.08,28.17,1600.00,1660.50,1595.70,1587.60,1539.00,11.27,10.41,10.30,9.68,3.12,3.10,2.79,3.22
20220914,134036.749,45.43683700,12.35506800,-55.90,28.62,1.63000000,1,3.72,1.75,-151.60,0.15,0.00,0.00,0.180,9.040,1,-4.96,3.90,6.91,0.30,0.43,-9.85,30.00,-30.00,30.00,-30.00,30.00,1600.00,1660.50,1595.70,1587.60,1539.00,11.27,10.41,10.30,9.68,3.16,3.10,2.79,3.22
20220914,134036.749,45.43683700,12.35506800,-55.90,28.62,1.63000000,1,3.24,2.09,-150.87,0.13,0.00,0.00,0.180,9.040,1,-4.82,4.61,7.88,-0.16,0.42,-10.13,30.00,-30.00,30.00,-30.00,30.00,1600.00,1660.50,1595.70,1595.70,1539.00,11.27,10.41,10.41,9.68,3.17,3.11,2.80,3.22
20220914,134036.749,45.43683700,12.35506800,-55.90,28.62,1.63000000,1,3.24,2.09,-150.87,0.13,0.00,0.00,0.180,9.040,1,-4.82,4.61,7.88,-0.16,0.42,-10.13,30.00,-30.00,30.00,-30.00,30.00,1600.00,1660.50,1595.70,1595.70,1547.10,11.27,10.41,10.41,9.78,3.26,3.12,2.80,3.22
20220914,134037.000,45.43683500,12.35506600,-56.12,28.46,1.62600000,1,2.72,2.55,-148.87,0.08,0.00,0.00,0.190,9.137,1,0.30,1.54,12.22,-0.34,0.16,-9.87,30.00,-30.00,30.00,-30.00,30.00,1600.00,1660.50,1603.80,1595.70,1571.40,11.27,10.51,10.41,10.09,3.22,3.13,2.79,3.22
20220914,134037.000,45.43683500,12.35506600,-56.12,28.46,1.62600000,1,2.74,2.52,-147.67,0.06,0.00,0.00,0.190,9.137,1,0.32,0.39,11.87,-0.18,0.10,-9.85,30.00,-30.00,30.00,-30.00,30.00,1600.00,1652.40,1595.70,1603.80,1579.50,11.16,10.41,10.51,10.20,3.25,3.13,2.79,3.22
20220914,134037.249,45.43683300,12.35506400,-56.34,28.31,1.62100000,1,2.81,2.36,-146.25,0.03,0.00,0.00,0.180,9.216,1,1.90,-1.69,14.02,-0.42,0.10,-9.56,30.00,-30.00,30.00,-30.00,30.00,1600.00,1660.50,1603.80,1603.80,1579.50,11.27,10.51,10.51,10.20,3.31,3.13,2.78,3.22
20220914,134037.249,45.43683300,12.35506400,-56.34,28.31,1.62100000,1,2.81,2.36,-146.25,0.03,0.00,0.00,0.180,9.216,1,1.90,-1.69,14.02,-0.42,0.10,-9.56,30.00,-30.00,30.00,-30.00,30.00,1600.00,1668.60,1595.70,1603.80,1587.60,11.38,10.41,10.51,10.30,3.32,3.13,2.77,3.22
20220914,134037.249,45.43683300,12.35506400,-56.34,28.31,1.62100000,1,2.81,2.36,-146.25,0.03,0.00,0.00,0.180,9.216,1,1.90,-1.69,14.02,-0.42,0.10,-9.56,30.00,-30.00,30.00,-30.00,30.00,1600.00,1684.80,1611.90,1611.90,1595.70,11.60,10.62,10.62,10.41,3.44,3.20,2.85,3.28
20220914,134037.249,45.43683300,12.35506400,-56.34,28.31,1.62100000,1,2.81,2.36,-146.25,0.03,0.00,0.00,0.180,9.216,1,1.90,-1.69,14.02,-0.42,0.10,-9.56,30.00,-30.00,30.00,-30.00,30.00,1600.00,1692.90,1628.10,1628.10,1620.00,11.71,10.83,10.83,10.73,3.46,3.24,2.86,3.32
20220914,134037.249,45.43683300,12.35506400,-56.34,28.31,1.62100000,1,2.81,2.36,-146.25,0.03,0.00,0.00,0.180,9.216,1,1.90,-1.69,14.02,-0.42,0.10,-9.56,30.00,-30.00,30.00,-30.00,30.00,1600.00,1701.00,1628.10,1628.10,1620.00,11.83,10.83,10.83,10.73,3.48,3.24,2.84,3.31
20220914,134037.249,45.43683300,12.35506400,-56.34,28.31,1.62100000,1,2.81,2.36,-146.25,0.03,0.00,0.00,0.180,9.216,1,1.90,-1.69,14.02,-0.42,0.10,-9.56,30.00,-30.00,30.00,-30.00,30.00,1600.00,1701.00,1628.10,1620.00,1620.00,11.83,10.83,10.73,10.73,3.46,3.24,2.85,3.31
20220914,134037.249,45.43683300,12.35506400,-56.34,28.31,1.62100000,1,2.81,2.36,-146.25,0.03,0.00,0.00,0.180,9.216,1,1.90,-1.69,14.02,-0.42,0.10,-9.56,30.00,-30.00,30.00,-30.00,30.00,1600.00,1701.00,1628.10,1620.00,1620.00,11.83,10.83,10.73,10.73,3.48,3.24,2.83,3.31
20220914,134037.249,45.43683300,12.35506400,-56.34,28.31,1.62100000,1,2.81,2.36,-146.25,0.03,0.00,0.00,0.180,9.216,1,1.90,-1.69,14.02,-0.42,0.10,-9.56,30.00,-30.00,30.00,-30.00,30.00,1600.00,1692.90,1636.20,1620.00,1620.00,11.71,10.94,10.73,10.73,3.41,3.24,2.83,3.31
20220914,134037.249,45.43683300,12.35506400,-56.34,28.31,1.62100000,1,2.81,2.36,-146.25,0.03,0.00,0.00,0.180,9.216,1,1.90,-1.69,14.02,-0.42,0.10,-9.56,30.00,-30.00,30.00,-30.00,30.00,1600.00,1692.90,1636.20,1620.00,1620.00,11.71,10.94,10.73,10.73,3.41,3.23,2.83,3.30
20220914,134037.249,45.43683300,12.35506400,-56.34,28.31,1.62100000,1,2.81,2.36,-146.25,0.03,0.00,0.00,0.180,9.216,1,1.90,-1.69,14.02,-0.42,0.10,-9.56,30.00,-30.00,30.00,-30.00,30.00,1600.00,1701.00,1636.20,1611.90,1620.00,11.83,10.94,10.62,10.73,3.46,3.23,2.83,3.30
20220914,134037.249,45.43683300,12.35506400,-56.34,28.31,1.62100000,1,2.81,2.36,-146.25,0.03,0.00,0.00,0.180,9.216,1,1.90,-1.69,14.02,-0.42,0.10,-9.56,30.00,-30.00,30.00,-30.00,30.00,1600.00,1692.90,1644.30,1620.00,1620.00,11.71,11.05,10.73,10.73,3.47,3.23,2.82,3.30
20220914,134037.249,45.43683300,12.35506400,-56.34,28.31,1.62100000,1,2.81,2.36,-146.25,0.03,0.00,0.00,0.180,9.216,1,1.90,-1.69,14.02,-0.42,0.10,-9.56,30.00,-30.00,30.00,-30.00,30.00,1600.00,1701.00,1644.30,1620.00,1620.00,11.83,11.05,10.73,10.73,3.47,3.23,2.83,3.30
20220914,134037.249,45.43683300,12.35506400,-56.34,28.31,1.62100000,1,2.81,2.36,-146.25,0.03,0.00,0.00,0.180,9.216,1,1.90,-1.69,14.02,-0.42,0.10,-9.56,30.00,-30.00,30.00,-30.00,30.00,1600.00,1701.00,1644.30,1620.00,1611.90,11.83,11.05,10.73,10.62,3.51,3.22,2.82,3.30
20220914,134037.249,45.43683300,12.35506400,-56.34,28.31,1.62100000,1,2.81,2.36,-146.25,0.03,0.00,0.00,0.180,9.216,1,1.90,-1.69,14.02,-0.42,0.10,-9.56,30.00,-30.00,30.00,-30.00,30.00,1600.00,1692.90,1636.20,1620.00,1620.00,11.71,10.94,10.73,10.73,3.45,3.21,2.82,3.30
20220914,134037.249,45.43683300,12.35506400,-56.34,28.31,1.62100000,1,2.81,2.36,-146.25,0.03,0.00,0.00,0.180,9.216,1,1.90,-1.69,14.02,-0.42,0.10,-9.56,30.00,-30.00,30.00,-30.00,30.00,1600.00,1692.90,1636.20,1620.00,1611.90,11.71,10.94,10.73,10.62,3.46,3.20,2.82,3.30
20220914,134038.499,45.43682300,12.35505100,-57.46,27.29,1.59600000,1,2.54,1.99,-119.01,-0.29,0.00,0.00,0.170,9.892,1,-1.98,0.40,20.55,-0.02,-0.13,-9.81,30.00,-30.00,30.00,-30.00,30.00,1600.00,1684.80,1628.10,1628.10,1611.90,11.60,10.83,10.83,10.62,3.49,3.17,2.83,3.30
20220914,134038.499,45.43682300,12.35505100,-57.46,27.29,1.59600000,1,2.54,1.99,-119.01,-0.29,0.00,0.00,0.170,9.892,1,-1.98,0.40,20.55,-0.02,-0.13,-9.81,30.00,-30.00,30.00,-30.00,30.00,1600.00,1701.00,1628.10,1628.10,1620.00,11.83,10.83,10.83,10.73,3.54,3.18,2.83,3.30
20220914,134038.499,45.43682300,12.35505100,-57.46,27.29,1.59600000,1,2.54,1.99,-119.01,-0.29,0.00,0.00,0.170,9.892,1,-1.98,0.40,20.55,-0.02,-0.13,-9.81,30.00,-30.00,30.00,-30.00,30.00,1600.00,1709.10,1620.00,1628.10,1620.00,11.94,10.73,10.83,10.73,3.53,3.17,2.83,3.30
20220914,134038.749,45.43682200,12.35504800,-57.57,27.06,1.59100000,1,1.86,2.17,-112.77,-0.33,0.00,0.00,0.170,10.050,1,-1.20,1.50,19.85,-0.59,0.15,-9.70,30.00,-30.00,30.00,-30.00,30.00,1600.00,1709.10,1620.00,1628.10,1620.00,11.94,10.73,10.83,10.73,3.54,3.17,2.83,3.29
20220914,134038.749,45.43682200,12.35504800,-57.57,27.06,1.59100000,1,1.86,2.17,-112.77,-0.33,0.00,0.00,0.170,10.050,1,-1.20,1.50,19.85,-0.59,0.15,-9.70,30.00,-30.00,30.00,-30.00,30.00,1600.00,1701.00,1620.00,1636.20,1620.00,11.83,10.73,10.94,10.73,3.45,3.17,2.83,3.29
20220914,134039.000,45.43682000,12.35504400,-57.79,26.75,1.58600000,1,1.82,2.26,-108.72,-0.30,0.00,0.00,0.180,9.858,1,0.34,2.13,20.15,0.05,-0.07,-9.70,30.00,-30.00,30.00,-30.00,30.00,1600.00,1701.00,1620.00,1628.10,1620.00,11.83,10.73,10.83,10.73,3.46,3.17,2.84,3.29
20220914,134039.249,45.43681900,12.35504100,-57.90,26.51,1.58300000,1,1.90,2.43,-106.74,-0.24,0.00,0.00,0.180,10.152,1,0.47,3.52,19.31,-0.04,0.02,-9.74,30.00,-30.00,30.00,-30.00,30.00,1600.00,1701.00,1620.00,1620.00,1620.00,11.83,10.73,10.73,10.73,3.52,3.17,2.83,3.29
20220914,134039.249,45.43681900,12.35504100,-57.90,26.51,1.58300000,1,1.96,2.67,-104.83,-0.28,0.00,0.00,0.180,10.152,1,-0.30,3.50,18.64,-0.18,-0.01,-9.82,30.00,-30.00,30.00,-30.00,30.00,1600.00,1709.10,1611.90,1620.00,1620.00,11.94,10.62,10.73,10.73,3.53,3.17,2.83,3.29
20220914,134039.249,45.43681900,12.35504100,-57.90,26.51,1.58300000,1,2.04,2.94,-102.90,-0.32,0.00,0.00,0.180,10.152,1,0.43,3.62,19.32,-0.39,0.05,-10.12,30.00,-30.00,30.00,-30.00,30.00,1600.00,1709.10,1603.80,1628.10,1611.90,11.94,10.51,10.83,10.62,3.54,3.17,2.83,3.29
20220914,134039.499,45.43681900,12.35503700,-57.90,26.20,1.58000000,1,2.07,3.14,-100.83,-0.25,0.00,0.00,0.180,10.508,1,-0.68,2.12,20.11,-0.70,0.05,-9.92,30.00,-30.00,30.00,-30.00,30.00,1600.00,1709.10,1603.80,1628.10,1620.00,11.94,10.51,10.83,10.73,3.56,3.16,2.83,3.30
20220914,134039.499,45.43681900,12.35503700,-57.90,26.20,1.58000000,1,2.05,3.14,-98.69,-0.29,0.00,0.00,0.180,10.508,1,-0.26,-0.64,20.80,-0.58,-0.12,-9.74,30.00,-30.00,30.00,-30.00,30.00,1600.00,1717.20,1611.90,1620.00,1620.00,12.05,10.62,10.73,10.73,3.55,3.19,2.83,3.29
20220914,134039.749,45.43681900,12.35503400,-57.90,25.97,1.57500000,1,2.13,2.89,-96.43,-0.20,0.00,0.00,0.180,9.594,1,0.54,-2.47,22.98,-0.21,0.40,-9.63,30.00,-30.00,30.00,-30.00,30.00,1600.00,1701.00,1611.90,1620.00,1611.90,11.83,10.62,10.73,10.62,3.49,3.18,2.82,3.29
20220914,134039.749,45.43681900,12.35503400,-57.90,25.97,1.57500000,1,2.22,2.54,-94.04,-0.25,0.00,0.00,0.180,9.594,1,-1.34,-1.98,23.42,-0.16,0.45,-9.47,30.00,-30.00,30.00,-30.00,30.00,1600.00,1701.00,1611.90,1611.90,1611.90,11.83,10.62,10.62,10.62,3.55,3.18,2.84,3.29
20220914,134039.749,45.43681900,12.35503400,-57.90,25.97,1.57500000,1,2.22,2.54,-94.04,-0.25,0.00,0.00,0.180,9.594,1,-1.34,-1.98,23.42,-0.16,0.45,-9.47,30.00,-30.00,30.00,-30.00,30.00,1600.00,1701.00,1620.00,1611.90,1620.00,11.83,10.73,10.62,10.73,3.54,3.19,2.84,3.29
20220914,134039.749,45.43681900,12.35503400,-57.90,25.97,1.57500000,1,2.22,2.54,-94.04,-0.25,0.00,0.00,0.180,9.594,1,-1.34,-1.98,23.42,-0.16,0.45,-9.47,30.00,-30.00,30.00,-30.00,30.00,1600.00,1709.10,1620.00,1611.90,1620.00,11.94,10.73,10.62,10.73,3.62,3.19,2.84,3.30
20220914,134040.000,45.43681900,12.35503000,-57.90,25.66,1.57000000,1,1.96,2.26,-87.19,-0.28,0.00,0.00,0.180,8.880,1,0.83,3.99,22.13,0.14,-0.12,-9.95,30.00,-30.00,30.00,-30.00,30.00,1600.00,1701.00,1620.00,1611.90,1620.00,11.83,10.73,10.62,10.73,3.62,3.19,2.84,3.30
20220914,134040.000,45.43681900,12.35503000,-57.90,25.66,1.57000000,1,1.96,2.26,-87.19,-0.28,0.00,0.00,0.180,8.880,1,0.83,3.99,22.13,0.14,-0.12,-9.95,30.00,-30.00,30.00,-30.00,30.00,1600.00,1692.90,1620.00,1620.00,1620.00,11.71,10.73,10.73,10.73,3.55,3.20,2.84,3.29
20220914,134040.249,45.43681900,12.35502600,-57.90,25.34,1.56600000,1,2.09,2.89,-82.66,-0.28,0.00,0.00,0.190,9.078,1,-1.58,2.77,19.95,-0.71,0.32,-9.82,30.00,-30.00,30.00,-30.00,30.00,1600.00,1692.90,1620.00,1620.00,1620.00,11.71,10.73,10.73,10.73,3.52,3.19,2.83,3.29
20220914,134040.499,45.43681900,12.35502300,-57.90,25.11,1.56200000,1,1.92,2.99,-80.60,-0.22,0.00,0.00,0.180,9.725,1,-3.11,0.49,18.68,-0.60,0.07,-9.81,30.00,-30.00,30.00,-30.00,30.00,1600.00,1692.90,1636.20,1611.90,1628.10,11.71,10.94,10.62,10.83,3.57,3.19,2.84,3.29
20220914,134040.499,45.43681900,12.35502300,-57.90,25.11,1.56200000,1,1.65,2.94,-78.62,-0.26,0.00,0.00,0.180,9.725,1,-2.68,1.06,19.88,-0.29,-0.08,-9.69,30.00,-30.00,30.00,-30.00,30.00,1600.00,1692.90,1636.20,1611.90,1620.00,11.71,10.94,10.62,10.73,3.53,3.19,2.84,3.28
20220914,134040.499,45.43681900,12.35502300,-57.90,25.11,1.56200000,1,1.45,2.89,-76.63,-0.30,0.00,0.00,0.180,9.725,1,-1.15,0.19,19.93,-0.20,-0.38,-9.97,30.00,-30.00,30.00,-30.00,30.00,1600.00,1684.80,1628.10,1611.90,1620.00,11.60,10.83,10.62,10.73,3.48,3.24,2.86,3.29
20220914,134040.499,45.43681900,12.35502300,-57.90,25.11,1.56200000,1,1.45,2.89,-76.63,-0.30,0.00,0.00,0.180,9.725,1,-1.15,0.19,19.93,-0.20,-0.38,-9.97,30.00,-30.00,30.00,-30.00,30.00,1600.00,1684.80,1628.10,1611.90,1620.00,11.60,10.83,10.62,10.73,3.53,3.23,2.86,3.29
20220914,134040.749,45.43681900,12.35501900,-57.90,24.80,1.56000000,1,1.66,2.65,-72.90,-0.28,0.00,0.00,0.200,9.774,1,2.64,-1.09,17.16,-0.50,0.07,-9.81,30.00,-30.00,30.00,-30.00,30.00,1600.00,1684.80,1636.20,1620.00,1611.90,11.60,10.94,10.73,10.62,3.47,3.22,2.86,3.30
20220914,134041.000,45.43682000,12.35501600,-57.79,24.56,1.55900000,1,2.30,2.26,-69.17,-0.23,0.00,0.00,0.200,9.738,1,2.20,-0.94,19.93,-0.16,0.24,-9.56,30.00,-30.00,30.00,-30.00,30.00,1600.00,1692.90,1628.10,1611.90,1611.90,11.71,10.83,10.62,10.62,3.53,3.22,2.85,3.30
20220914,134041.000,45.43682000,12.35501600,-57.79,24.56,1.55900000,1,2.44,2.07,-67.07,-0.27,0.00,0.00,0.200,9.738,1,0.07,-0.64,19.27,0.02,0.15,-9.59,30.00,-30.00,30.00,-30.00,30.00,1600.00,1701.00,1620.00,1611.90,1611.90,11.83,10.73,10.62,10.62,3.50,3.21,2.85,3.30
20220914,134041.000,45.43682000,12.35501600,-57.79,24.56,1.55900000,1,2.40,1.97,-65.10,-0.31,0.00,0.00,0.200,9.738,1,-1.71,1.14,18.99,0.08,0.23,-9.66,30.00,-30.00,30.00,-30.00,30.00,1600.00,1701.00,1620.00,1620.00,1603.80,11.83,10.73,10.73,10.51,3.47,3.21,2.84,3.30
20220914,134041.249,45.43682100,12.35501300,-57.68,24.33,1.55700000,1,2.14,2.07,-63.08,-0.27,0.00,0.00,0.190,10.301,1,-3.90,3.98,20.09,-0.15,0.37,-9.78,30.00,-30.00,30.00,-30.00,30.00,1600.00,1709.10,1620.00,1611.90,1603.80,11.94,10.73,10.62,10.51,3.54,3.21,2.86,3.31
20220914,134041.249,45.43682100,12.35501300,-57.68,24.33,1.55700000,1,1.72,2.40,-60.99,-0.31,0.00,0.00,0.190,10.301,1,-4.83,6.18,21.24,-0.16,0.05,-10.05,30.00,-30.00,30.00,-30.00,30.00,1600.00,1709.10,1620.00,1620.00,1611.90,11.94,10.73,10.73,10.62,3.50,3.22,2.86,3.31
20220914,134041.499,45.43682200,12.35500900,-57.57,24.02,1.55600000,1,1.42,2.92,-58.79,-0.27,0.00,0.00,0.190,10.712,1,-2.62,6.18,21.17,-0.22,-0.20,-9.92,30.00,-30.00,30.00,-30.00,30.00,1600.00,1709.10,1620.00,1620.00,1611.90,11.94,10.73,10.73,10.62,3.46,3.22,2.86,3.31
20220914,134041.499,45.43682200,12.35500900,-57.57,24.02,1.55600000,1,1.34,3.36,-56.69,-0.31,0.00,0.00,0.190,10.712,1,0.46,3.66,19.85,-0.34,-0.23,-9.85,30.00,-30.00,30.00,-30.00,30.00,1600.00,1701.00,1620.00,1644.30,1611.90,11.83,10.73,11.05,10.62,3.49,3.22,2.84,3.31
20220914,134041.499,45.43682200,12.35500900,-57.57,24.02,1.55600000,1,1.57,3.55,-54.56,-0.35,0.00,0.00,0.190,10.712,1,2.79,1.03,20.30,-0.81,0.01,-9.82,30.00,-30.00,30.00,-30.00,30.00,1600.00,1692.90,1620.00,1644.30,1611.90,11.71,10.73,11.05,10.62,3.48,3.18,2.83,3.31
20220914,134041.749,45.43682300,12.35500600,-57.46,23.78,1.55700000,1,1.83,3.41,-52.40,-0.35,0.00,0.00,0.210,13.128,1,0.97,-2.39,20.07,-0.80,-0.09,-9.67,30.00,-30.00,30.00,-30.00,30.00,1600.00,1692.90,1620.00,1644.30,1611.90,11.71,10.73,11.05,10.62,3.43,3.18,2.83,3.31
20220914,134041.749,45.43682300,12.35500600,-57.46,23.78,1.55700000,1,1.90,3.01,-50.26,-0.39,0.00,0.00,0.210,13.128,1,-0.56,-3.76,21.07,-0.09,0.06,-9.53,30.00,-30.00,30.00,-30.00,30.00,1600.00,1684.80,1620.00,1652.40,1611.90,11.60,10.73,11.16,10.62,3.41,3.18,2.82,3.31
20220914,134042.000,45.43682500,12.35500300,-57.23,23.55,1.55900000,1,1.81,2.56,-48.09,-0.35,0.00,0.00,0.180,13.602,1,-2.38,-2.63,20.64,-0.02,0.06,-9.73,30.00,-30.00,30.00,-30.00,30.00,1600.00,1684.80,1611.90,1676.70,1620.00,11.60,10.62,11.49,10.73,3.38,3.18,2.80,3.31
20220914,134042.000,45.43682500,12.35500300,-57.23,23.55,1.55900000,1,1.58,2.30,-46.02,-0.39,0.00,0.00,0.180,13.602,1,-1.93,0.49,20.50,-0.13,0.07,-9.84,30.00,-30.00,30.00,-30.00,30.00,1600.00,1668.60,1620.00,1668.60,1620.00,11.38,10.73,11.38,10.73,3.39,3.18,2.80,3.31
20220914,134042.000,45.43682500,12.35500300,-57.23,23.55,1.55900000,1,1.58,2.39,-43.92,-0.43,0.00,0.00,0.180,13.602,1,1.07,3.96,21.65,-0.12,-0.02,-9.89,30.00,-30.00,30.00,-30.00,30.00,1600.00,1684.80,1628.10,1668.60,1611.90,11.60,10.83,11.38,10.62,3.43,3.18,2.80,3.31
20220914,134042.249,45.43682600,12.35500000,-57.12,23.32,1.56100000,1,1.83,2.74,-41.73,-0.37,0.00,0.00,0.180,13.446,1,2.74,5.45,21.19,-0.18,-0.12,-10.00,30.00,-30.00,30.00,-30.00,30.00,1600.00,1684.80,1628.10,1668.60,1611.90,11.60,10.83,11.38,10.62,3.38,3.17,2.80,3.30
20220914,134042.249,45.43682600,12.35500000,-57.12,23.32,1.56100000,1,2.16,3.16,-39.60,-0.41,0.00,0.00,0.180,13.446,1,3.35,5.69,20.55,-0.20,0.00,-9.96,30.00,-30.00,30.00,-30.00,30.00,1600.00,1676.70,1628.10,1668.60,1611.90,11.49,10.83,11.38,10.62,3.38,3.16,2.78,3.30
20220914,134042.499,45.43682800,12.35499700,-56.90,23.08,1.56400000,1,2.44,3.55,-37.56,-0.36,0.00,0.00,0.190,14.152,1,1.48,4.19,18.43,-0.34,0.03,-9.87,30.00,-30.00,30.00,-30.00,30.00,1600.00,1684.80,1628.10,1668.60,1611.90,11.60,10.83,11.38,10.62,3.38,3.16,2.78,3.30
20220914,134042.499,45.43682800,12.35499700,-56.90,23.08,1.56400000,1,2.59,3.77,-35.64,-0.39,0.00,0.00,0.190,14.152,1,0.99,1.91,18.52,-0.65,-0.13,-9.85,30.00,-30.00,30.00,-30.00,30.00,1600.00,1717.20,1628.10,1644.30,1611.90,12.05,10.83,11.05,10.62,3.40,3.16,2.80,3.30
20220914,134042.499,45.43682800,12.35499700,-56.90,23.08,1.56400000,1,2.62,3.74,-33.71,-0.43,0.00,0.00,0.190,14.152,1,-0.67,-0.27,18.97,-0.58,0.13,-9.71,30.00,-30.00,30.00,-30.00,30.00,1600.00,1725.30,1628.10,1636.20,1611.90,12.17,10.83,10.94,10.62,3.43,3.15,2.80,3.30
20220914,134042.749,45.43683000,12.35499500,-56.68,22.93,1.56500000,1,2.51,3.56,-31.80,-0.35,0.00,0.00,0.190,13.548,1,-2.12,-0.02,18.49,-0.42,0.16,-9.62,30.00,-30.00,30.00,-30.00,30.00,1600.00,1717.20,1636.20,1636.20,1603.80,12.05,10.94,10.94,10.51,3.43,3.15,2.80,3.30
20220914,134042.749,45.43683000,12.35499500,-56.68,22.93,1.56500000,1,2.40,3.43,-29.91,-0.38,0.00,0.00,0.190,13.548,1,-1.53,1.46,19.17,0.12,0.10,-9.55,30.00,-30.00,30.00,-30.00,30.00,1600.00,1733.40,1636.20,1636.20,1611.90,12.28,10.94,10.94,10.62,3.48,3.15,2.80,3.30
20220914,134043.000,45.43683300,12.35499300,-56.34,22.77,1.56400000,1,2.42,3.46,-27.97,-0.29,0.00,0.00,0.210,11.506,1,-0.96,2.64,18.62,0.16,0.22,-9.69,30.00,-30.00,30.00,-30.00,30.00,1600.00,1741.50,1636.20,1611.90,1595.70,12.40,10.94,10.62,10.41,3.47,3.15,2.81,3.30
20220914,134043.000,45.43683300,12.35499300,-56.34,22.77,1.56400000,1,2.37,3.62,-25.98,-0.33,0.00,0.00,0.210,11.506,1,-1.54,3.37,18.54,-0.47,0.23,-9.99,30.00,-30.00,30.00,-30.00,30.00,1600.00,1733.40,1636.20,1603.80,1595.70,12.28,10.94,10.51,10.41,3.44,3.14,2.79,3.30
20220914,134043.000,45.43683300,12.35499300,-56.34,22.77,1.56400000,1,2.27,3.79,-24.08,-0.37,0.00,0.00,0.210,11.506,1,-1.41,2.50,18.55,-0.60,0.13,-10.04,30.00,-30.00,30.00,-30.00,30.00,1600.00,1717.20,1636.20,1611.90,1603.80,12.05,10.94,10.62,10.51,3.40,3.15,2.79,3.30
20220914,134043.249,45.43683500,12.35499100,-56.12,22.61,1.56400000,1,2.19,3.86,-22.21,-0.29,0.00,0.00,0.200,11.158,1,-1.36,0.56,17.36,-0.63,0.03,-10.00,30.00,-30.00,30.00,-30.00,30.00,1600.00,1725.30,1636.20,1611.90,1603.80,12.17,10.94,10.62,10.51,3.45,3.21,2.78,3.29
20220914,134043.249,45.43683500,12.35499100,-56.12,22.61,1.56400000,1,2.08,3.70,-20.37,-0.32,0.00,0.00,0.200,11.158,1,-1.64,-2.23,18.27,-0.62,0.01,-9.77,30.00,-30.00,30.00,-30.00,30.00,1600.00,1733.40,1636.20,1611.90,1603.80,12.28,10.94,10.62,10.51,3.49,3.21,2.78,3.30
20220914,134043.499,45.43683700,12.35499000,-55.90,22.54,1.56500000,1,1.97,3.29,-18.36,-0.26,0.00,0.00,0.220,11.152,1,-2.03,-3.78,19.98,-0.24,0.11,-9.72,30.00,-30.00,30.00,-30.00,30.00,1600.00,1733.40,1628.10,1628.10,1603.80,12.28,10.83,10.83,10.51,3.49,3.20,2.79,3.30
20220914,134043.499,45.43683700,12.35499000,-55.90,22.54,1.56500000,1,1.81,2.85,-16.31,-0.30,0.00,0.00,0.220,11.152,1,-2.27,-2.17,19.73,-0.13,0.05,-9.61,30.00,-30.00,30.00,-30.00,30.00,1600.00,1701.00,1628.10,1611.90,1603.80,11.83,10.83,10.62,10.51,3.45,3.20,2.79,3.30
20220914,134043.749,45.43684000,12.35498900,-55.57,22.46,1.56500000,1,1.62,2.61,-14.24,-0.24,0.00,0.00,0.230,10.525,1,-2.27,0.05,20.16,-0.19,-0.12,-9.77,30.00,-30.00,30.00,-30.00,30.00,1600.00,1701.00,1628.10,1620.00,1603.80,11.83,10.83,10.73,10.51,3.47,3.21,2.79,3.30
20220914,134043.749,45.43684000,12.35498900,-55.57,22.46,1.56500000,1,1.47,2.56,-12.18,-0.28,0.00,0.00,0.230,10.525,1,-1.47,2.15,20.39,-0.08,0.04,-10.11,30.00,-30.00,30.00,-30.00,30.00,1600.00,1709.10,1628.10,1620.00,1603.80,11.94,10.83,10.73,10.51,3.52,3.21,2.79,3.30
20220914,134043.749,45.43684000,12.35498900,-55.57,22.46,1.56500000,1,1.47,2.78,-10.11,-0.32,0.00,0.00,0.230,10.525,1,0.84,4.62,20.68,0.13,-0.04,-10.09,30.00,-30.00,30.00,-30.00,30.00,1600.00,1701.00,1628.10,1620.00,1603.80,11.83,10.83,10.73,10.51,3.49,3.21,2.79,3.30
20220914,134044.000,45.43684200,12.35498800,-55.34,22.38,1.56300000,1,1.65,3.19,-7.96,-0.26,0.00,0.00,0.220,10.058,1,1.05,5.03,20.38,-0.12,0.05,-9.95,30.00,-30.00,30.00,-30.00,30.00,1600.00,1692.90,1628.10,1628.10,1611.90,11.71,10.83,10.83,10.62,3.48,3.21,2.79,3.30
20220914,134044.000,45.43684200,12.35498800,-55.34,22.38,1.56300000,1,1.79,3.54,-5.86,-0.31,0.00,0.00,0.220,10.058,1,0.28,3.30,19.83,-0.88,0.05,-9.86,30.00,-30.00,30.00,-30.00,30.00,1600.00,1692.90,1628.10,1628.10,1611.90,11.71,10.83,10.83,10.62,3.49,3.22,2.81,3.31
20220914,134044.249,45.43684500,12.35498800,-55.01,22.38,1.56100000,1,1.91,3.64,-3.77,-0.25,0.00,0.00,0.220,9.933,1,0.24,0.73,21.24,-0.62,0.02,-9.61,30.00,-30.00,30.00,-30.00,30.00,1600.00,1709.10,1628.10,1628.10,1611.90,11.94,10.83,10.83,10.62,3.55,3.21,2.82,3.30
20220914,134044.249,45.43684500,12.35498800,-55.01,22.38,1.56100000,1,1.95,3.50,-1.57,-0.30,0.00,0.00,0.220,9.933,1,-1.44,-1.65,21.11,-0.17,0.16,-9.43,30.00,-30.00,30.00,-30.00,30.00,1600.00,1701.00,1628.10,1628.10,1611.90,11.83,10.83,10.83,10.62,3.53,3.16,2.82,3.30
20220914,134044.249,45.43684500,12.35498800,-55.01,22.38,1.56100000,1,1.81,3.19,0.52,-0.34,0.00,0.00,0.220,9.933,1,-2.05,-2.42,19.73,-0.29,-0.02,-9.52,30.00,-30.00,30.00,-30.00,30.00,1600.00,1692.90,1628.10,1628.10,1611.90,11.71,10.83,10.83,10.62,3.50,3.17,2.82,3.29
20220914,134044.499,45.43684800,12.35498700,-54.68,22.30,1.55800000,1,1.68,2.86,2.49,-0.30,0.00,0.00,0.230,9.349,1,-0.91,-1.27,19.57,-0.14,-0.27,-9.89,30.00,-30.00,30.00,-30.00,30.00,1600.00,1701.00,1620.00,1611.90,1603.80,11.83,10.73,10.62,10.51,3.53,3.17,2.81,3.30
20220914,134044.499,45.43684800,12.35498700,-54.68,22.30,1.55800000,1,1.72,2.72,4.46,-0.34,0.00,0.00,0.230,9.349,1,0.52,1.29,19.39,-0.03,-0.03,-10.05,30.00,-30.00,30.00,-30.00,30.00,1600.00,1709.10,1620.00,1628.10,1603.80,11.94,10.73,10.83,10.51,3.54,3.17,2.81,3.29
20220914,134044.749,45.43685000,12.35498700,-54.46,22.30,1.55600000,1,1.85,2.82,6.35,-0.29,0.00,0.00,0.240,9.178,1,1.90,3.83,18.93,-0.13,-0.16,-10.11,30.00,-30.00,30.00,-30.00,30.00,1600.00,1701.00,1620.00,1620.00,1603.80,11.83,10.73,10.73,10.51,3.51,3.17,2.81,3.29
20220914,134044.749,45.43685000,12.35498700,-54.46,22.30,1.55600000,1,2.13,3.07,8.33,-0.33,0.00,0.00,0.240,9.178,1,3.07,3.65,20.23,-0.33,0.11,-9.94,30.00,-30.00,30.00,-30.00,30.00,1600.00,1701.00,1620.00,1620.00,1611.90,11.83,10.73,10.73,10.62,3.50,3.16,2.81,3.29
20220914,134044.749,45.43685000,12.35498700,-54.46,22.30,1.55600000,1,2.39,3.22,10.45,-0.37,0.00,0.00,0.240,9.178,1,0.51,1.35,20.33,-0.44,0.41,-9.64,30.00,-30.00,30.00,-30.00,30.00,1600.00,1692.90,1620.00,1611.90,1603.80,11.71,10.73,10.62,10.51,3.50,3.16,2.81,3.29
20220914,134045.000,45.43685300,12.35498800,-54.12,22.38,1.55300000,1,2.43,3.17,12.55,-0.29,0.00,0.00,0.220,9.362,1,-0.83,-0.55,20.40,-0.51,0.15,-9.37,30.00,-30.00,30.00,-30.00,30.00,1600.00,1701.00,1620.00,1611.90,1611.90,11.83,10.73,10.62,10.62,3.56,3.16,2.82,3.29
20220914,134045.000,45.43685300,12.35498800,-54.12,22.38,1.55300000,1,2.32,2.97,14.73,-0.33,0.00,0.00,0.220,9.362,1,-2.79,-0.77,21.54,-0.46,0.22,-9.42,30.00,-30.00,30.00,-30.00,30.00,1600.00,1701.00,1628.10,1620.00,1611.90,11.83,10.83,10.73,10.62,3.53,3.18,2.82,3.29
20220914,134045.249,45.43685600,12.35498800,-53.79,22.38,1.54800000,1,2.01,2.80,16.87,-0.28,0.00,0.00,0.210,8.249,1,-3.87,1.11,20.58,0.12,-0.07,-9.71,30.00,-30.00,30.00,-30.00,30.00,1600.00,1676.70,1620.00,1620.00,1603.80,11.49,10.73,10.73,10.51,3.51,3.18,2.83,3.30
20220914,134045.249,45.43685600,12.35498800,-53.79,22.38,1.54800000,1,2.01,2.80,16.87,-0.28,0.00,0.00,0.210,8.249,1,-3.87,1.11,20.58,0.12,-0.07,-9.71,30.00,-30.00,30.00,-30.00,30.00,1600.00,1684.80,1701.00,1611.90,1603.80,11.60,11.83,10.62,10.51,3.52,3.17,2.83,3.29
20220914,134045.249,45.43685600,12.35498800,-53.79,22.38,1.54800000,1,1.75,2.88,18.87,-0.32,0.00,0.00,0.210,8.249,1,-1.09,3.75,20.82,0.32,-0.35,-9.97,30.00,-30.00,30.00,-30.00,30.00,1600.00,1692.90,1701.00,1611.90,1611.90,11.71,11.83,10.62,10.62,3.57,3.17,2.85,3.29
20220914,134045.249,45.43685600,12.35498800,-53.79,22.38,1.54800000,1,1.77,3.19,20.91,-0.36,0.00,0.00,0.210,8.249,1,1.01,4.85,20.55,-0.17,-0.23,-10.31,30.00,-30.00,30.00,-30.00,30.00,1600.00,1684.80,1701.00,1620.00,1611.90,11.60,11.83,10.73,10.62,3.53,3.16,2.85,3.29
20220914,134045.499,45.43685800,12.35498900,-53.57,22.46,1.54300000,1,1.98,3.55,22.81,-0.31,0.00,0.00,0.200,8.222,1,3.43,4.06,19.67,-0.80,-0.12,-10.20,30.00,-30.00,30.00,-30.00,30.00,1600.00,1692.90,1701.00,1611.90,1611.90,11.71,11.83,10.62,10.62,3.57,3.16,2.84,3.29
20220914,134045.499,45.43685800,12.35498900,-53.57,22.46,1.54300000,1,2.50,3.72,24.86,-0.35,0.00,0.00,0.200,8.222,1,4.64,1.15,21.75,-0.59,0.32,-9.76,30.00,-30.00,30.00,-30.00,30.00,1600.00,1692.90,1692.90,1620.00,1611.90,11.71,11.71,10.73,10.62,3.56,3.16,2.84,3.29
20220914,134045.749,45.43686100,12.35499000,-53.23,22.54,1.53800000,1,2.91,3.58,27.07,-0.29,0.00,0.00,0.190,8.276,1,0.65,-1.55,21.32,-0.30,0.43,-9.49,30.00,-30.00,30.00,-30.00,30.00,1600.00,1692.90,1692.90,1620.00,1611.90,11.71,11.71,10.73,10.62,3.54,3.17,2.84,3.29
20220914,134045.749,45.43686100,12.35499000,-53.23,22.54,1.53800000,1,2.89,3.21,29.22,-0.33,0.00,0.00,0.190,8.276,1,-2.90,-2.72,21.80,-0.44,0.35,-9.59,30.00,-30.00,30.00,-30.00,30.00,1600.00,1692.90,1692.90,1611.90,1611.90,11.71,11.71,10.62,10.62,3.54,3.17,2.84,3.29
20220914,134045.749,45.43686100,12.35499000,-53.23,22.54,1.53800000,1,2.54,2.82,31.38,-0.38,0.00,0.00,0.190,8.276,1,-5.43,-1.22,20.73,-0.21,0.19,-9.80,30.00,-30.00,30.00,-30.00,30.00,1600.00,1684.80,1684.80,1620.00,1611.90,11.60,11.60,10.73,10.62,3.46,3.16,2.83,3.29
20220914,134046.000,45.43686300,12.35499200,-53.01,22.69,1.53400000,1,1.98,2.65,33.38,-0.33,0.00,0.00,0.180,7.866,1,-5.72,1.66,19.68,0.11,-0.13,-9.98,30.00,-30.00,30.00,-30.00,30.00,1600.00,1692.90,1676.70,1620.00,1611.90,11.71,11.49,10.73,10.62,3.51,3.14,2.83,3.29
20220914,134046.000,45.43686300,12.35499200,-53.01,22.69,1.53400000,1,1.53,2.82,35.27,-0.37,0.00,0.00,0.180,7.866,1,-3.09,4.65,19.46,0.02,-0.25,-10.10,30.00,-30.00,30.00,-30.00,30.00,1600.00,1692.90,1684.80,1620.00,1611.90,11.71,11.60,10.73,10.62,3.47,3.14,2.83,3.29
20220914,134046.249,45.43686600,12.35499300,-52.68,22.77,1.53000000,1,1.35,3.20,37.18,-0.31,0.00,0.00,0.190,8.154,1,-0.51,5.65,19.24,-0.16,-0.33,-10.00,30.00,-30.00,30.00,-30.00,30.00,1600.00,1692.90,1611.90,1620.00,1611.90,11.71,10.62,10.73,10.62,3.47,3.14,2.84,3.30
20220914,134046.249,45.43686600,12.35499300,-52.68,22.77,1.53000000,1,1.46,3.62,39.05,-0.35,0.00,0.00,0.190,8.154,1,2.02,4.48,19.66,-0.36,-0.30,-9.84,30.00,-30.00,30.00,-30.00,30.00,1600.00,1684.80,1611.90,1620.00,1611.90,11.60,10.62,10.73,10.62,3.40,3.14,2.82,3.30
20220914,134046.249,45.43686600,12.35499300,-52.68,22.77,1.53000000,1,1.80,3.86,40.96,-0.39,0.00,0.00,0.190,8.154,1,4.01,2.11,19.72,-0.74,-0.03,-9.66,30.00,-30.00,30.00,-30.00,30.00,1600.00,1684.80,1611.90,1611.90,1611.90,11.60,10.62,10.62,10.62,3.41,3.15,2.83,3.30
20220914,134046.499,45.43686800,12.35499600,-52.45,23.00,1.52700000,1,2.28,3.86,42.86,-0.32,0.00,0.00,0.190,8.411,1,4.20,0.59,19.42,-0.67,0.08,-9.53,30.00,-30.00,30.00,-30.00,30.00,1600.00,1684.80,1611.90,1611.90,1620.00,11.60,10.62,10.62,10.73,3.38,3.15,2.84,3.30
20220914,134046.499,45.43686800,12.35499600,-52.45,23.00,1.52700000,1,2.76,3.70,44.79,-0.35,0.00,0.00,0.190,8.411,1,2.88,-0.95,19.18,-0.10,0.34,-9.39,30.00,-30.00,30.00,-30.00,30.00,1600.00,1676.70,1611.90,1611.90,1620.00,11.49,10.62,10.62,10.73,3.38,3.15,2.85,3.30
20220914,134046.749,45.43687000,12.35499800,-52.23,23.16,1.52400000,1,2.99,3.43,46.67,-0.27,0.00,0.00,0.190,8.829,1,-0.78,-1.44,17.93,-0.17,0.43,-9.63,30.00,-30.00,30.00,-30.00,30.00,1600.00,1676.70,1611.90,1611.90,1620.00,11.49,10.62,10.62,10.73,3.41,3.15,2.85,3.30
20220914,134046.749,45.43687000,12.35499800,-52.23,23.16,1.52400000,1,2.86,3.19,48.51,-0.31,0.00,0.00,0.190,8.829,1,-3.28,-0.17,18.27,-0.54,0.35,-9.94,30.00,-30.00,30.00,-30.00,30.00,1600.00,1684.80,1611.90,1620.00,1620.00,11.60,10.62,10.73,10.73,3.42,3.15,2.85,3.30
20220914,134046.749,45.43687000,12.35499800,-52.23,23.16,1.52400000,1,2.47,3.07,50.37,-0.34,0.00,0.00,0.190,8.829,1,-5.45,1.27,18.52,-0.16,0.19,-9.96,30.00,-30.00,30.00,-30.00,30.00,1600.00,1684.80,1620.00,1611.90,1620.00,11.60,10.73,10.62,10.73,3.47,3.15,2.86,3.30
20220914,134047.000,45.43687200,12.35500100,-52.01,23.39,1.52000000,1,1.99,3.12,52.25,-0.30,0.00,0.00,0.190,8.570,1,-4.57,2.32,19.81,0.04,-0.13,-9.91,30.00,-30.00,30.00,-30.00,30.00,1600.00,1692.90,1620.00,1611.90,1611.90,11.71,10.73,10.62,10.62,3.46,3.15,2.85,3.31
20220914,134047.000,45.43687200,12.35500100,-52.01,23.39,1.52000000,1,1.64,3.20,54.22,-0.34,0.00,0.00,0.190,8.570,1,-3.09,1.03,21.21,-0.22,-0.05,-9.79,30.00,-30.00,30.00,-30.00,30.00,1600.00,1701.00,1620.00,1611.90,1611.90,11.83,10.73,10.62,10.62,3.46,3.14,2.85,3.30
20220914,134047.249,45.43687400,12.35500400,-51.79,23.63,1.51800000,1,1.43,3.19,56.19,-0.29,0.00,0.00,0.180,8.721,1,-0.47,-0.34,19.92,-0.63,-0.47,-9.64,30.00,-30.00,30.00,-30.00,30.00,1600.00,1701.00,1620.00,1611.90,1611.90,11.83,10.73,10.62,10.62,3.43,3.14,2.86,3.31
20220914,134047.249,45.43687400,12.35500400,-51.79,23.63,1.51800000,1,1.57,3.01,58.12,-0.33,0.00,0.00,0.180,8.721,1,3.03,-0.76,21.06,-0.09,0.08,-9.79,30.00,-30.00,30.00,-30.00,30.00,1600.00,1701.00,1620.00,1611.90,1611.90,11.83,10.73,10.62,10.62,3.47,3.14,2.88,3.31
20220914,134047.249,45.43687400,12.35500400,-51.79,23.63,1.51800000,1,1.97,2.88,60.30,-0.38,0.00,0.00,0.180,8.721,1,2.28,1.39,20.96,-0.08,0.17,-9.80,30.00,-30.00,30.00,-30.00,30.00,1600.00,1701.00,1620.00,1611.90,1611.90,11.83,10.73,10.62,10.62,3.46,3.13,2.87,3.31
20220914,134047.499,45.43687600,12.35500700,-51.57,23.86,1.51500000,1,2.12,2.94,62.36,-0.33,0.00,0.00,0.180,8.720,1,-0.11,2.74,20.37,-0.22,0.15,-9.99,30.00,-30.00,30.00,-30.00,30.00,1600.00,1709.10,1611.90,1611.90,1611.90,11.94,10.62,10.62,10.62,3.46,3.14,2.87,3.30
20220914,134047.499,45.43687600,12.35500700,-51.57,23.86,1.51500000,1,2.08,3.11,64.49,-0.38,0.00,0.00,0.180,8.720,1,-2.52,3.96,20.69,0.20,0.44,-10.11,30.00,-30.00,30.00,-30.00,30.00,1600.00,1709.10,1620.00,1611.90,1611.90,11.94,10.73,10.62,10.62,3.48,3.14,2.87,3.30
20220914,134047.749,45.43687700,12.35501000,-51.45,24.10,1.51400000,1,1.80,3.42,66.62,-0.34,0.00,0.00,0.190,9.832,1,-5.23,4.65,19.56,-0.14,0.18,-10.15,30.00,-30.00,30.00,-30.00,30.00,1600.00,1709.10,1652.40,1620.00,1611.90,11.94,11.16,10.73,10.62,3.44,3.14,2.87,3.28
20220914,134047.749,45.43687700,12.35501000,-51.45,24.10,1.51400000,1,1.35,3.73,68.53,-0.38,0.00,0.00,0.190,9.832,1,-3.72,3.50,19.12,-0.75,-0.43,-10.03,30.00,-30.00,30.00,-30.00,30.00,1600.00,1701.00,1652.40,1611.90,1611.90,11.83,11.16,10.62,10.62,3.43,3.14,2.87,3.26
20220914,134048.000,45.43687900,12.35501300,-51.23,24.33,1.51300000,1,1.26,3.85,70.30,-0.35,0.00,0.00,0.180,10.395,1,2.99,0.05,19.39,-0.81,-0.62,-10.00,30.00,-30.00,30.00,-30.00,30.00,1600.00,1709.10,1652.40,1620.00,1611.90,11.94,11.16,10.73,10.62,3.45,3.14,2.86,3.25
20220914,134048.000,45.43687900,12.35501300,-51.23,24.33,1.51300000,1,1.69,3.64,72.19,-0.38,0.00,0.00,0.180,10.395,1,4.69,-3.05,21.06,-0.24,-0.17,-9.53,30.00,-30.00,30.00,-30.00,30.00,1600.00,1701.00,1652.40,1620.00,1620.00,11.83,11.16,10.73,10.73,3.45,3.14,2.86,3.22
20220914,134048.000,45.43687900,12.35501300,-51.23,24.33,1.51300000,1,2.80,2.51,76.00,-0.46,0.00,0.00,0.180,10.395,1,4.87,-5.93,20.68,-0.57,0.43,-9.31,30.00,-30.00,30.00,-30.00,30.00,1600.00,1692.90,1652.40,1611.90,1620.00,11.71,11.16,10.62,10.73,3.46,3.16,2.86,3.20
20220914,134048.249,45.43688000,12.35501700,-51.12,24.64,1.51400000,1,3.18,1.83,78.04,-0.40,0.00,0.00,0.190,10.764,1,0.64,-3.52,20.00,0.23,0.50,-9.51,30.00,-30.00,30.00,-30.00,30.00,1600.00,1684.80,1652.40,1620.00,1620.00,11.60,11.16,10.73,10.73,3.48,3.13,2.85,3.18
20220914,134048.249,45.43688000,12.35501700,-51.12,24.64,1.51400000,1,3.13,1.56,80.03,-0.44,0.00,0.00,0.190,10.764,1,-1.57,1.44,19.43,0.28,0.28,-9.89,30.00,-30.00,30.00,-30.00,30.00,1600.00,1692.90,1652.40,1620.00,1620.00,11.71,11.16,10.73,10.73,3.46,3.13,2.84,3.16
20220914,134048.499,45.43688100,12.35502100,-51.01,24.95,1.51500000,1,2.96,1.75,82.02,-0.40,0.00,0.00,0.180,11.610,1,-2.25,5.22,20.25,0.07,0.16,-10.08,30.00,-30.00,30.00,-30.00,30.00,1600.00,1692.90,1652.40,1620.00,1620.00,11.71,11.16,10.73,10.73,3.52,3.13,2.84,3.14
20220914,134048.499,45.43688100,12.35502100,-51.01,24.95,1.51500000,1,2.63,2.25,84.09,-0.45,0.00,0.00,0.180,11.610,1,-3.15,8.25,19.17,0.15,-0.02,-10.36,30.00,-30.00,30.00,-30.00,30.00,1600.00,1692.90,1684.80,1620.00,1620.00,11.71,11.60,10.73,10.73,3.50,3.12,2.84,3.12
20220914,134048.499,45.43688100,12.35502100,-51.01,24.95,1.51500000,1,2.42,3.01,85.98,-0.48,0.00,0.00,0.180,11.610,1,-0.59,8.18,19.74,-0.52,-0.13,-10.17,30.00,-30.00,30.00,-30.00,30.00,1600.00,1684.80,1684.80,1620.00,1620.00,11.60,11.60,10.73,10.73,3.53,3.11,2.84,3.12
20220914,134048.749,45.43688200,12.35502400,-50.90,25.19,1.51500000,1,2.38,3.61,87.86,-0.43,0.00,0.00,0.180,11.923,1,-0.86,6.67,18.77,-0.45,0.03,-9.73,30.00,-30.00,30.00,-30.00,30.00,1600.00,1684.80,1652.40,1620.00,1620.00,11.60,11.16,10.73,10.73,3.51,3.11,2.84,3.12
20220914,134048.749,45.43688200,12.35502400,-50.90,25.19,1.51500000,1,2.33,4.11,89.70,-0.46,0.00,0.00,0.180,11.923,1,-2.19,6.03,17.88,-0.42,0.12,-9.79,30.00,-30.00,30.00,-30.00,30.00,1600.00,1692.90,1628.10,1620.00,1611.90,11.71,10.83,10.73,10.62,3.51,3.10,2.84,3.12
20220914,134049.000,45.43688200,12.35502800,-50.90,25.50,1.51800000,1,2.20,4.47,91.47,-0.42,0.00,0.00,0.190,13.906,1,-3.56,3.15,18.44,-0.41,0.52,-9.62,30.00,-30.00,30.00,-30.00,30.00,1600.00,1684.80,1628.10,1620.00,1611.90,11.60,10.83,10.73,10.62,3.48,3.10,2.85,3.12
20220914,134049.000,45.43688200,12.35502800,-50.90,25.50,1.51800000,1,1.79,4.55,93.25,-0.46,0.00,0.00,0.190,13.906,1,-7.16,-0.15,19.66,-0.79,0.26,-9.61,30.00,-30.00,30.00,-30.00,30.00,1600.00,1676.70,1628.10,1620.00,1611.90,11.49,10.83,10.73,10.62,3.45,3.09,2.84,3.13
20220914,134049.000,45.43688200,12.35502800,-50.90,25.50,1.51800000,1,1.26,4.35,95.11,-0.50,0.00,0.00,0.190,13.906,1,-4.92,-3.26,20.95,-1.14,-0.34,-9.67,30.00,-30.00,30.00,-30.00,30.00,1600.00,1684.80,1628.10,1611.90,1620.00,11.60,10.83,10.62,10.73,3.52,3.09,2.84,3.14
20220914,134049.249,45.43688300,12.35503200,-50.79,25.81,1.52200000,1,1.08,3.84,97.20,-0.43,0.00,0.00,0.200,14.842,1,0.27,-4.93,22.63,-0.32,-0.55,-9.76,30.00,-30.00,30.00,-30.00,30.00,1600.00,1709.10,1628.10,1620.00,1611.90,11.94,10.83,10.73,10.62,3.57,3.12,2.84,3.15
20220914,134049.249,45.43688300,12.35503200,-50.79,25.81,1.52200000,1,1.34,3.31,99.42,-0.47,0.00,0.00,0.200,14.842,1,3.74,-2.68,20.90,0.04,-0.17,-9.75,30.00,-30.00,30.00,-30.00,30.00,1600.00,1709.10,1603.80,1611.90,1611.90,11.94,10.51,10.62,10.62,3.56,3.12,2.84,3.13
20220914,134049.499,45.43688300,12.35503600,-50.79,26.12,1.52000000,1,1.84,3.03,101.60,-0.40,0.00,0.00,0.200,11.230,1,5.52,0.69,21.13,-0.02,0.13,-9.92,30.00,-30.00,30.00,-30.00,30.00,1600.00,1709.10,1603.80,1611.90,1611.90,11.94,10.51,10.62,10.62,3.57,3.12,2.84,3.14
20220914,134049.499,45.43688300,12.35503600,-50.79,26.12,1.52000000,1,2.40,3.04,103.77,-0.45,0.00,0.00,0.200,11.230,1,3.12,2.86,21.50,0.07,0.31,-9.81,30.00,-30.00,30.00,-30.00,30.00,1600.00,1701.00,1579.50,1611.90,1611.90,11.83,10.20,10.62,10.62,3.55,3.12,2.84,3.16
20220914,134049.499,45.43688300,12.35503600,-50.79,26.12,1.52000000,1,2.55,3.19,105.89,-0.49,0.00,0.00,0.200,11.230,1,-1.44,3.02,21.81,-0.15,0.06,-9.69,30.00,-30.00,30.00,-30.00,30.00,1600.00,1709.10,1579.50,1603.80,1611.90,11.94,10.20,10.51,10.62,3.52,3.14,2.84,3.17
20220914,134049.749,45.43688200,12.35503900,-50.90,26.36,1.52000000,1,2.41,3.37,108.03,-0.44,0.00,0.00,0.230,10.903,1,-2.77,2.77,22.36,-0.78,0.16,-9.53,30.00,-30.00,30.00,-30.00,30.00,1600.00,1709.10,1579.50,1611.90,1611.90,11.94,10.20,10.62,10.62,3.54,3.14,2.84,3.18
20220914,134049.749,45.43688200,12.35503900,-50.90,26.36,1.52000000,1,2.13,3.46,110.10,-0.49,0.00,0.00,0.230,10.903,1,-3.64,0.62,22.10,-0.88,-0.09,-9.61,30.00,-30.00,30.00,-30.00,30.00,1600.00,1709.10,1595.70,1620.00,1620.00,11.94,10.41,10.73,10.73,3.59,3.14,2.85,3.19
20220914,134050.000,45.43688200,12.35504300,-50.90,26.67,1.51900000,1,1.90,3.35,112.21,-0.40,0.00,0.00,0.210,10.937,1,-1.58,0.18,22.41,-0.05,-0.18,-9.80,30.00,-30.00,30.00,-30.00,30.00,1600.00,1717.20,1595.70,1611.90,1620.00,12.05,10.41,10.62,10.73,3.57,3.15,2.86,3.20
20220914,134050.000,45.43688200,12.35504300,-50.90,26.67,1.51900000,1,1.86,3.31,114.47,-0.45,0.00,0.00,0.210,10.937,1,0.47,2.89,21.80,0.27,0.00,-9.85,30.00,-30.00,30.00,-30.00,30.00,1600.00,1717.20,1587.60,1611.90,1603.80,12.05,10.30,10.62,10.51,3.64,3.14,2.87,3.22
20220914,134050.000,45.43688200,12.35504300,-50.90,26.67,1.51900000,1,2.01,3.55,116.72,-0.49,0.00,0.00,0.210,10.937,1,2.06,5.15,20.33,0.01,-0.10,-10.28,30.00,-30.00,30.00,-30.00,30.00,1600.00,1717.20,1595.70,1620.00,1603.80,12.05,10.41,10.73,10.51,3.57,3.14,2.87,3.22
20220914,134050.249,45.43688100,12.35504700,-51.01,26.98,1.51700000,1,2.28,3.96,118.82,-0.44,0.00,0.00,0.210,10.308,1,3.36,6.19,19.46,-0.46,-0.23,-10.56,30.00,-30.00,30.00,-30.00,30.00,1600.00,1692.90,1595.70,1611.90,1603.80,11.71,10.41,10.62,10.51,3.49,3.14,2.87,3.23
20220914,134050.249,45.43688100,12.35504700,-51.01,26.98,1.51700000,1,2.71,4.38,120.86,-0.48,0.00,0.00,0.210,10.308,1,3.99,4.95,20.18,-0.53,0.07,-10.35,30.00,-30.00,30.00,-30.00,30.00,1600.00,1684.80,1620.00,1611.90,1603.80,11.60,10.73,10.62,10.51,3.48,3.11,2.85,3.28
20220914,134050.499,45.43688000,12.35505000,-51.12,27.22,1.51300000,1,3.14,4.54,122.81,-0.38,0.00,0.00,0.190,9.773,1,2.00,-0.05,21.55,-0.95,0.41,-9.98,30.00,-30.00,30.00,-30.00,30.00,1600.00,1684.80,1620.00,1611.90,1603.80,11.60,10.73,10.62,10.51,3.47,3.11,2.85,3.28
20220914,134050.499,45.43688000,12.35505000,-51.12,27.22,1.51300000,1,3.17,4.13,124.62,-0.42,0.00,0.00,0.190,9.773,1,-3.62,-6.74,20.35,-0.88,0.58,-9.38,30.00,-30.00,30.00,-30.00,30.00,1600.00,1684.80,1620.00,1611.90,1603.80,11.60,10.73,10.62,10.51,3.49,3.07,2.85,3.27
20220914,134050.499,45.43688000,12.35505000,-51.12,27.22,1.51300000,1,2.77,3.17,126.25,-0.45,0.00,0.00,0.190,9.773,1,-6.95,-10.73,18.42,-0.64,0.52,-9.01,30.00,-30.00,30.00,-30.00,30.00,1600.00,1676.70,1620.00,1620.00,1603.80,11.49,10.73,10.73,10.51,3.46,3.07,2.84,3.27
20220914,134050.749,45.43687900,12.35505300,-51.23,27.45,1.50900000,1,2.14,2.04,127.91,-0.38,0.00,0.00,0.200,9.675,1,-7.03,-9.08,18.99,-0.14,0.02,-9.15,30.00,-30.00,30.00,-30.00,30.00,1600.00,1684.80,1620.00,1620.00,1603.80,11.60,10.73,10.73,10.51,3.50,3.07,2.85,3.28
20220914,134050.749,45.43687900,12.35505300,-51.23,27.45,1.50900000,1,1.47,1.24,129.84,-0.42,0.00,0.00,0.200,9.675,1,-5.35,-2.80,18.81,0.55,-0.31,-9.60,30.00,-30.00,30.00,-30.00,30.00,1600.00,1676.70,1628.10,1611.90,1603.80,11.49,10.83,10.62,10.51,3.49,3.06,2.84,3.28
20220914,134051.000,45.43687800,12.35505600,-51.34,27.68,1.50600000,1,1.00,1.14,131.84,-0.38,0.00,0.00,0.190,9.836,1,-2.23,3.69,18.07,0.71,-0.50,-10.13,30.00,-30.00,30.00,-30.00,30.00,1600.00,1676.70,1628.10,1611.90,1603.80,11.49,10.83,10.62,10.51,3.49,3.06,2.83,3.28
20220914,134051.000,45.43687800,12.35505600,-51.34,27.68,1.50600000,1,1.00,1.14,131.84,-0.38,0.00,0.00,0.190,9.836,1,-2.23,3.69,18.07,0.71,-0.50,-10.13,30.00,-30.00,30.00,-30.00,30.00,1600.00,1676.70,1636.20,1620.00,1611.90,11.49,10.94,10.73,10.62,3.43,3.07,2.82,3.28
20220914,134051.000,45.43687800,12.35505600,-51.34,27.68,1.50600000,1,0.95,1.67,133.77,-0.42,0.00,0.00,0.190,9.836,1,2.00,9.36,18.25,0.23,-0.35,-10.39,30.00,-30.00,30.00,-30.00,30.00,1600.00,1684.80,1660.50,1620.00,1611.90,11.60,11.27,10.73,10.62,3.49,3.07,2.82,3.29
20220914,134051.249,45.43687700,12.35505900,-51.45,27.92,1.50300000,1,1.82,3.62,137.62,-0.39,0.00,0.00,0.180,9.938,1,4.42,10.35,20.53,-0.55,0.08,-9.87,30.00,-30.00,30.00,-30.00,30.00,1600.00,1692.90,1660.50,1628.10,1611.90,11.71,11.27,10.83,10.62,3.49,3.06,2.82,3.29
20220914,134051.249,45.43687700,12.35505900,-51.45,27.92,1.50300000,1,2.25,4.41,139.61,-0.43,0.00,0.00,0.180,9.938,1,2.44,6.95,20.45,-0.72,0.18,-9.78,30.00,-30.00,30.00,-30.00,30.00,1600.00,1709.10,1660.50,1628.10,1603.80,11.94,11.27,10.83,10.51,3.57,3.10,2.83,3.28
20220914,134051.499,45.43687500,12.35506100,-51.68,28.07,1.50000000,1,2.50,4.77,141.51,-0.38,0.00,0.00,0.190,11.190,1,0.45,2.33,19.87,-0.68,0.21,-9.61,30.00,-30.00,30.00,-30.00,30.00,1600.00,1701.00,1660.50,1628.10,1611.90,11.83,11.27,10.83,10.62,3.50,3.09,2.84,3.28
20220914,134051.499,45.43687500,12.35506100,-51.68,28.07,1.50000000,1,2.61,4.69,143.36,-0.41,0.00,0.00,0.190,11.190,1,0.04,-1.82,19.47,-0.69,0.06,-9.47,30.00,-30.00,30.00,-30.00,30.00,1600.00,1701.00,1660.50,1628.10,1603.80,11.83,11.27,10.83,10.51,3.54,3.13,2.84,3.28
20220914,134051.749,45.43687300,12.35506400,-51.90,28.31,1.49700000,1,2.69,4.24,145.26,-0.34,0.00,0.00,0.190,10.166,1,0.15,-4.75,20.25,-0.62,0.17,-9.36,30.00,-30.00,30.00,-30.00,30.00,1600.00,1709.10,1660.50,1620.00,1603.80,11.94,11.27,10.73,10.51,3.55,3.13,2.84,3.27
20220914,134051.749,45.43687300,12.35506400,-51.90,28.31,1.49700000,1,2.80,3.60,147.26,-0.38,0.00,0.00,0.190,10.166,1,0.22,-4.44,21.00,-0.44,0.09,-9.56,30.00,-30.00,30.00,-30.00,30.00,1600.00,1701.00,1668.60,1628.10,1603.80,11.83,11.38,10.83,10.51,3.58,3.13,2.83,3.27
20220914,134051.749,45.43687300,12.35506400,-51.90,28.31,1.49700000,1,2.80,3.60,147.26,-0.38,0.00,0.00,0.190,10.166,1,0.22,-4.44,21.00,-0.44,0.09,-9.56,30.00,-30.00,30.00,-30.00,30.00,1600.00,1709.10,1660.50,1628.10,1603.80,11.94,11.27,10.83,10.51,3.57,3.14,2.83,3.27
20220914,134052.000,45.43687100,12.35506600,-52.12,28.46,1.49400000,1,2.74,2.94,151.31,-0.38,0.00,0.00,0.190,9.779,1,-2.59,2.59,20.28,0.26,0.36,-10.11,30.00,-30.00,30.00,-30.00,30.00,1600.00,1725.30,1660.50,1628.10,1603.80,12.17,11.27,10.83,10.51,3.63,3.14,2.83,3.27
20220914,134052.000,45.43687100,12.35506600,-52.12,28.46,1.49400000,1,2.45,3.13,153.26,-0.42,0.00,0.00,0.190,9.779,1,-5.23,5.05,20.05,0.02,0.36,-10.18,30.00,-30.00,30.00,-30.00,30.00,1600.00,1725.30,1652.40,1628.10,1603.80,12.17,11.16,10.83,10.51,3.65,3.14,2.85,3.27
20220914,134052.249,45.43686900,12.35506800,-52.34,28.62,1.49100000,1,1.91,3.52,155.18,-0.37,0.00,0.00,0.190,9.952,1,-6.56,5.51,18.66,-0.28,0.01,-10.05,30.00,-30.00,30.00,-30.00,30.00,1600.00,1717.20,1620.00,1628.10,1595.70,12.05,10.73,10.83,10.41,3.58,3.10,2.85,3.27
20220914,134052.249,45.43686900,12.35506800,-52.34,28.62,1.49100000,1,1.40,3.93,157.06,-0.41,0.00,0.00,0.190,9.952,1,-4.20,3.88,19.04,-0.74,-0.25,-9.80,30.00,-30.00,30.00,-30.00,30.00,1600.00,1725.30,1611.90,1628.10,1603.80,12.17,10.62,10.83,10.51,3.63,3.11,2.85,3.27
20220914,134052.249,45.43686900,12.35506800,-52.34,28.62,1.49100000,1,1.40,3.93,157.06,-0.41,0.00,0.00,0.190,9.952,1,-4.20,3.88,19.04,-0.74,-0.25,-9.80,30.00,-30.00,30.00,-30.00,30.00,1600.00,1717.20,1620.00,1620.00,1611.90,12.05,10.73,10.73,10.62,3.57,3.10,2.85,3.26
20220914,134052.249,45.43686900,12.35506800,-52.34,28.62,1.49100000,1,1.12,4.07,158.91,-0.44,0.00,0.00,0.190,9.952,1,-1.72,0.28,18.09,-0.85,-0.40,-9.52,30.00,-30.00,30.00,-30.00,30.00,1600.00,1717.20,1611.90,1620.00,1603.80,12.05,10.62,10.73,10.51,3.58,3.09,2.85,3.27
20220914,134052.499,45.43686700,12.35507000,-52.57,28.77,1.48900000,1,1.46,3.61,162.65,-0.40,0.00,0.00,0.190,10.314,1,3.81,-2.93,19.30,-0.25,-0.16,-9.45,30.00,-30.00,30.00,-30.00,30.00,1600.00,1709.10,1611.90,1620.00,1603.80,11.94,10.62,10.73,10.51,3.51,3.08,2.85,3.27
20220914,134052.499,45.43686700,12.35507000,-52.57,28.77,1.48900000,1,1.46,3.61,162.65,-0.40,0.00,0.00,0.190,10.314,1,3.81,-2.93,19.30,-0.25,-0.16,-9.45,30.00,-30.00,30.00,-30.00,30.00,1600.00,1709.10,1611.90,1620.00,1595.70,11.94,10.62,10.73,10.41,3.56,3.09,2.86,3.28
20220914,134052.749,45.43686400,12.35507100,-52.90,28.85,1.48600000,1,1.92,3.20,164.52,-0.34,0.00,0.00,0.180,10.068,1,4.42,-2.70,18.73,-0.23,-0.04,-9.92,30.00,-30.00,30.00,-30.00,30.00,1600.00,1701.00,1603.80,1620.00,1595.70,11.83,10.51,10.73,10.41,3.48,3.08,2.86,3.28
20220914,134052.749,45.43686400,12.35507100,-52.90,28.85,1.48600000,1,2.50,2.89,166.39,-0.38,0.00,0.00,0.180,10.068,1,5.38,0.08,19.97,-0.15,0.31,-10.18,30.00,-30.00,30.00,-30.00,30.00,1600.00,1701.00,1611.90,1620.00,1587.60,11.83,10.62,10.73,10.30,3.49,3.12,2.86,3.28
20220914,134052.749,45.43686400,12.35507100,-52.90,28.85,1.48600000,1,3.03,2.81,168.27,-0.41,0.00,0.00,0.180,10.068,1,3.01,2.04,20.12,0.03,0.56,-10.01,30.00,-30.00,30.00,-30.00,30.00,1600.00,1692.90,1611.90,1620.00,1587.60,11.71,10.62,10.73,10.30,3.46,3.19,2.87,3.28
20220914,134053.000,45.43686200,12.35507300,-53.12,29.01,1.48300000,1,3.21,2.91,170.19,-0.34,0.00,0.00,0.190,10.170,1,-0.75,3.39,20.64,-0.04,0.47,-9.97,30.00,-30.00,30.00,-30.00,30.00,1600.00,1684.80,1620.00,1611.90,1595.70,11.60,10.73,10.62,10.41,3.42,3.18,2.86,3.28
20220914,134053.000,45.43686200,12.35507300,-53.12,29.01,1.48300000,1,3.09,3.05,172.18,-0.38,0.00,0.00,0.190,10.170,1,-3.83,2.33,21.10,-0.59,0.42,-9.85,30.00,-30.00,30.00,-30.00,30.00,1600.00,1692.90,1620.00,1611.90,1595.70,11.71,10.73,10.62,10.41,3.49,3.21,2.86,3.32
20220914,134053.249,45.43685900,12.35507300,-53.45,29.01,1.48200000,1,2.60,3.08,174.18,-0.31,0.00,0.00,0.200,10.329,1,-6.64,1.01,20.94,-0.60,0.12,-9.76,30.00,-30.00,30.00,-30.00,30.00,1600.00,1684.80,1603.80,1611.90,1603.80,11.60,10.51,10.62,10.51,3.43,3.21,2.87,3.31
20220914,134053.249,45.43685900,12.35507300,-53.45,29.01,1.48200000,1,2.02,3.06,176.26,-0.35,0.00,0.00,0.200,10.329,1,-4.83,1.11,21.00,-0.44,-0.06,-9.80,30.00,-30.00,30.00,-30.00,30.00,1600.00,1684.80,1603.80,1620.00,1595.70,11.60,10.51,10.73,10.41,3.43,3.22,2.88,3.31
20220914,134053.249,45.43685900,12.35507300,-53.45,29.01,1.48200000,1,1.67,3.04,178.36,-0.39,0.00,0.00,0.200,10.329,1,-2.80,0.50,20.21,-0.29,-0.32,-9.80,30.00,-30.00,30.00,-30.00,30.00,1600.00,1684.80,1611.90,1620.00,1603.80,11.60,10.62,10.73,10.51,3.48,3.20,2.87,3.31
20220914,134053.499,45.43685600,12.35507400,-53.79,29.09,1.48300000,1,1.57,3.00,-179.60,-0.34,0.00,0.00,0.210,10.596,1,0.74,1.53,20.05,0.10,-0.54,-10.00,30.00,-30.00,30.00,-30.00,30.00,1600.00,1692.90,1611.90,1620.00,1611.90,11.71,10.62,10.73,10.62,3.50,3.21,2.87,3.31
20220914,134053.499,45.43685600,12.35507400,-53.79,29.09,1.48300000,1,1.77,3.09,-177.46,-0.38,0.00,0.00,0.210,10.596,1,3.66,3.05,20.12,-0.06,-0.35,-9.95,30.00,-30.00,30.00,-30.00,30.00,1600.00,1692.90,1636.20,1620.00,1620.00,11.71,10.94,10.73,10.73,3.43,3.21,2.85,3.32
20220914,134053.749,45.43685300,12.35507400,-54.12,29.09,1.48500000,1,2.15,3.28,-175.42,-0.33,0.00,0.00,0.230,10.744,1,3.80,3.84,19.67,-0.31,-0.11,-9.84,30.00,-30.00,30.00,-30.00,30.00,1600.00,1701.00,1636.20,1620.00,1611.90,11.83,10.94,10.73,10.62,3.51,3.20,2.86,3.32
20220914,134053.749,45.43685300,12.35507400,-54.12,29.09,1.48500000,1,2.54,3.55,-173.50,-0.37,0.00,0.00,0.230,10.744,1,3.05,4.68,19.71,-0.28,0.00,-9.78,30.00,-30.00,30.00,-30.00,30.00,1600.00,1692.90,1636.20,1620.00,1620.00,11.71,10.94,10.73,10.73,3.45,3.16,2.86,3.32
20220914,134053.749,45.43685300,12.35507400,-54.12,29.09,1.48500000,1,2.84,3.83,-171.58,-0.41,0.00,0.00,0.230,10.744,1,0.85,4.07,20.05,-0.09,0.47,-9.59,30.00,-30.00,30.00,-30.00,30.00,1600.00,1684.80,1636.20,1620.00,1611.90,11.60,10.94,10.73,10.62,3.47,3.08,2.85,3.33
20220914,134054.000,45.43685100,12.35507300,-54.34,29.01,1.48600000,1,2.87,4.06,-169.73,-0.31,0.00,0.00,0.230,10.518,1,-2.30,2.52,19.61,-0.47,0.40,-9.54,30.00,-30.00,30.00,-30.00,30.00,1600.00,1684.80,1636.20,1620.00,1620.00,11.60,10.94,10.73,10.73,3.49,3.08,2.84,3.33
20220914,134054.000,45.43685100,12.35507300,-54.34,29.01,1.48600000,1,2.66,4.08,-167.83,-0.34,0.00,0.00,0.230,10.518,1,-3.54,0.66,20.06,-0.75,0.18,-9.69,30.00,-30.00,30.00,-30.00,30.00,1600.00,1684.80,1636.20,1620.00,1620.00,11.60,10.94,10.73,10.73,3.43,3.08,2.84,3.29
20220914,134054.249,45.43684800,12.35507300,-54.68,29.01,1.48800000,1,2.45,3.93,-165.91,-0.27,0.00,0.00,0.240,11.116,1,-3.53,0.42,20.20,-0.24,0.18,-9.83,30.00,-30.00,30.00,-30.00,30.00,1600.00,1692.90,1652.40,1628.10,1620.00,11.71,11.16,10.83,10.73,3.50,3.08,2.87,3.30
20220914,134054.249,45.43684800,12.35507300,-54.68,29.01,1.48800000,1,2.15,3.84,-164.07,-0.31,0.00,0.00,0.240,11.116,1,-3.66,0.32,18.12,-0.16,-0.01,-9.74,30.00,-30.00,30.00,-30.00,30.00,1600.00,1684.80,1652.40,1628.10,1620.00,11.60,11.16,10.83,10.73,3.47,3.08,2.86,3.30
20220914,134054.249,45.43684800,12.35507300,-54.68,29.01,1.48800000,1,1.88,3.73,-162.24,-0.35,0.00,0.00,0.240,11.116,1,-2.30,-0.42,18.91,-0.41,-0.04,-9.86,30.00,-30.00,30.00,-30.00,30.00,1600.00,1676.70,1636.20,1628.10,1620.00,11.49,10.94,10.83,10.73,3.41,3.11,2.87,3.30
20220914,134054.499,45.43684600,12.35507200,-54.90,28.93,1.49100000,1,1.76,3.53,-160.38,-0.30,0.00,0.00,0.250,11.656,1,-2.07,-0.89,19.08,-0.47,0.08,-9.92,30.00,-30.00,30.00,-30.00,30.00,1600.00,1676.70,1644.30,1628.10,1611.90,11.49,11.05,10.83,10.62,3.44,3.10,2.86,3.31
20220914,134054.499,45.43684600,12.35507200,-54.90,28.93,1.49100000,1,1.64,3.34,-158.57,-0.33,0.00,0.00,0.250,11.656,1,-1.23,-0.03,19.30,-0.26,-0.04,-9.65,30.00,-30.00,30.00,-30.00,30.00,1600.00,1692.90,1620.00,1620.00,1620.00,11.71,10.73,10.73,10.73,3.52,3.10,2.88,3.30
20220914,134054.749,45.43684300,12.35507100,-55.23,28.85,1.49300000,1,1.60,3.27,-156.64,-0.29,0.00,0.00,0.250,11.222,1,-0.63,0.48,19.35,-0.31,-0.24,-9.58,30.00,-30.00,30.00,-30.00,30.00,1600.00,1684.80,1611.90,1620.00,1620.00,11.60,10.62,10.73,10.73,3.43,3.11,2.87,3.29
20220914,134054.749,45.43684300,12.35507100,-55.23,28.85,1.49300000,1,1.63,3.18,-154.78,-0.32,0.00,0.00,0.250,11.222,1,1.45,0.37,17.88,-0.08,-0.23,-9.81,30.00,-30.00,30.00,-30.00,30.00,1600.00,1684.80,1603.80,1620.00,1620.00,11.60,10.51,10.73,10.73,3.44,3.12,2.88,3.29
20220914,134055.000,45.43684100,12.35507000,-55.46,28.77,1.49800000,1,1.94,3.12,-153.03,-0.29,0.00,0.00,0.270,12.429,1,3.96,0.88,18.37,-0.19,0.10,-9.76,30.00,-30.00,30.00,-30.00,30.00,1600.00,1676.70,1603.80,1620.00,1620.00,11.49,10.51,10.73,10.73,3.38,3.12,2.88,3.26
20220914,134055.000,45.43684100,12.35507000,-55.46,28.77,1.49800000,1,2.36,3.11,-151.37,-0.32,0.00,0.00,0.270,12.429,1,2.34,1.55,17.54,-0.29,0.39,-9.82,30.00,-30.00,30.00,-30.00,30.00,1600.00,1684.80,1603.80,1620.00,1611.90,11.60,10.51,10.73,10.62,3.38,3.11,2.88,3.26
20220914,134055.000,45.43684100,12.35507000,-55.46,28.77,1.49800000,1,2.55,3.17,-149.76,-0.35,0.00,0.00,0.270,12.429,1,0.07,2.37,17.80,-0.33,0.34,-10.10,30.00,-30.00,30.00,-30.00,30.00,1600.00,1684.80,1603.80,1620.00,1611.90,11.60,10.51,10.73,10.62,3.44,3.11,2.89,3.26
20220914,134055.249,45.43683900,12.35506800,-55.68,28.62,1.50400000,1,2.67,3.26,-148.03,-0.30,0.00,0.00,0.280,12.522,1,0.05,2.39,18.88,-0.14,0.38,-9.97,30.00,-30.00,30.00,-30.00,30.00,1600.00,1676.70,1603.80,1620.00,1611.90,11.49,10.51,10.73,10.62,3.41,3.12,2.85,3.26
20220914,134055.249,45.43683900,12.35506800,-55.68,28.62,1.50400000,1,2.55,3.27,-146.26,-0.33,0.00,0.00,0.280,12.522,1,-3.73,0.89,18.43,-0.17,0.45,-9.76,30.00,-30.00,30.00,-30.00,30.00,1600.00,1676.70,1603.80,1611.90,1603.80,11.49,10.51,10.62,10.51,3.42,3.11,2.85,3.25
20220914,134055.499,45.43683700,12.35506600,-55.90,28.46,1.50300000,1,2.13,3.21,-144.51,-0.28,0.00,0.00,0.230,11.212,1,-4.46,0.63,18.26,-0.79,0.11,-9.89,30.00,-30.00,30.00,-30.00,30.00,1600.00,1684.80,1620.00,1620.00,1603.80,11.60,10.73,10.73,10.51,3.47,3.08,2.85,3.25
20220914,134055.499,45.43683700,12.35506600,-55.90,28.46,1.50300000,1,2.13,3.21,-144.51,-0.28,0.00,0.00,0.230,11.212,1,-4.46,0.63,18.26,-0.79,0.11,-9.89,30.00,-30.00,30.00,-30.00,30.00,1600.00,1684.80,1620.00,1620.00,1611.90,11.60,10.73,10.73,10.62,3.40,3.09,2.85,3.25
20220914,134055.499,45.43683700,12.35506600,-55.90,28.46,1.50300000,1,2.13,3.21,-144.51,-0.28,0.00,0.00,0.230,11.212,1,-4.46,0.63,18.26,-0.79,0.11,-9.89,30.00,-30.00,30.00,-30.00,30.00,1600.00,1668.60,1620.00,1628.10,1603.80,11.38,10.73,10.83,10.51,3.40,3.09,2.84,3.24
20220914,134055.499,45.43683700,12.35506600,-55.90,28.46,1.50300000,1,2.13,3.21,-144.51,-0.28,0.00,0.00,0.230,11.212,1,-4.46,0.63,18.26,-0.79,0.11,-9.89,30.00,-30.00,30.00,-30.00,30.00,1600.00,1668.60,1628.10,1636.20,1611.90,11.38,10.83,10.94,10.62,3.44,3.10,2.83,3.25
20220914,134055.499,45.43683700,12.35506600,-55.90,28.46,1.50300000,1,2.13,3.21,-144.51,-0.28,0.00,0.00,0.230,11.212,1,-4.46,0.63,18.26,-0.79,0.11,-9.89,30.00,-30.00,30.00,-30.00,30.00,1600.00,1676.70,1636.20,1636.20,1603.80,11.49,10.94,10.94,10.51,3.49,3.10,2.83,3.25
20220914,134055.499,45.43683700,12.35506600,-55.90,28.46,1.50300000,1,2.13,3.21,-144.51,-0.28,0.00,0.00,0.230,11.212,1,-4.46,0.63,18.26,-0.79,0.11,-9.89,30.00,-30.00,30.00,-30.00,30.00,1600.00,1692.90,1636.20,1636.20,1611.90,11.71,10.94,10.94,10.62,3.52,3.10,2.83,3.27
20220914,134055.499,45.43683700,12.35506600,-55.90,28.46,1.50300000,1,2.13,3.21,-144.51,-0.28,0.00,0.00,0.230,11.212,1,-4.46,0.63,18.26,-0.79,0.11,-9.89,30.00,-30.00,30.00,-30.00,30.00,1600.00,1684.80,1636.20,1636.20,1611.90,11.60,10.94,10.94,10.62,3.50,3.11,2.83,3.27
20220914,134055.499,45.43683700,12.35506600,-55.90,28.46,1.50300000,1,2.13,3.21,-144.51,-0.28,0.00,0.00,0.230,11.212,1,-4.46,0.63,18.26,-0.79,0.11,-9.89,30.00,-30.00,30.00,-30.00,30.00,1600.00,1684.80,1636.20,1628.10,1611.90,11.60,10.94,10.83,10.62,3.43,3.12,2.83,3.27
20220914,134055.499,45.43683700,12.35506600,-55.90,28.46,1.50300000,1,2.13,3.21,-144.51,-0.28,0.00,0.00,0.230,11.212,1,-4.46,0.63,18.26,-0.79,0.11,-9.89,30.00,-30.00,30.00,-30.00,30.00,1600.00,1684.80,1636.20,1628.10,1620.00,11.60,10.94,10.83,10.73,3.47,3.11,2.84,3.26
20220914,134056.249,45.43683100,12.35505900,-56.57,27.92,1.50200000,1,2.42,3.68,-126.81,-0.31,0.00,0.00,0.220,11.346,1,-5.21,2.60,21.63,-0.37,0.18,-9.74,30.00,-30.00,30.00,-30.00,30.00,1600.00,1692.90,1636.20,1628.10,1628.10,11.71,10.94,10.83,10.83,3.48,3.11,2.86,3.26
20220914,134056.249,45.43683100,12.35505900,-56.57,27.92,1.50200000,1,2.42,3.68,-126.81,-0.31,0.00,0.00,0.220,11.346,1,-5.21,2.60,21.63,-0.37,0.18,-9.74,30.00,-30.00,30.00,-30.00,30.00,1600.00,1684.80,1628.10,1620.00,1628.10,11.60,10.83,10.73,10.83,3.44,3.14,2.87,3.26
20220914,134056.249,45.43683100,12.35505900,-56.57,27.92,1.50200000,1,2.42,3.68,-126.81,-0.31,0.00,0.00,0.220,11.346,1,-5.21,2.60,21.63,-0.37,0.18,-9.74,30.00,-30.00,30.00,-30.00,30.00,1600.00,1692.90,1628.10,1620.00,1628.10,11.71,10.83,10.73,10.83,3.47,3.14,2.87,3.26
20220914,134056.249,45.43683100,12.35505900,-56.57,27.92,1.50200000,1,2.42,3.68,-126.81,-0.31,0.00,0.00,0.220,11.346,1,-5.21,2.60,21.63,-0.37,0.18,-9.74,30.00,-30.00,30.00,-30.00,30.00,1600.00,1684.80,1620.00,1611.90,1628.10,11.60,10.73,10.62,10.83,3.42,3.14,2.86,3.27
20220914,134056.249,45.43683100,12.35505900,-56.57,27.92,1.50200000,1,2.42,3.68,-126.81,-0.31,0.00,0.00,0.220,11.346,1,-5.21,2.60,21.63,-0.37,0.18,-9.74,30.00,-30.00,30.00,-30.00,30.00,1600.00,1692.90,1692.90,1603.80,1603.80,11.71,11.71,10.51,10.51,3.44,3.14,2.88,3.26
20220914,134056.249,45.43683100,12.35505900,-56.57,27.92,1.50200000,1,2.42,3.68,-126.81,-0.31,0.00,0.00,0.220,11.346,1,-5.21,2.60,21.63,-0.37,0.18,-9.74,30.00,-30.00,30.00,-30.00,30.00,1600.00,1692.90,1692.90,1611.90,1611.90,11.71,11.71,10.62,10.62,3.38,3.13,2.88,3.27
20220914,134056.249,45.43683100,12.35505900,-56.57,27.92,1.50200000,1,2.42,3.68,-126.81,-0.31,0.00,0.00,0.220,11.346,1,-5.21,2.60,21.63,-0.37,0.18,-9.74,30.00,-30.00,30.00,-30.00,30.00,1600.00,1676.70,1692.90,1611.90,1603.80,11.49,11.71,10.62,10.51,3.38,3.13,2.89,3.27
20220914,134057.000,45.43682800,12.35505000,-56.90,27.22,1.49900000,1,2.65,3.64,-113.19,-0.27,0.00,0.00,0.200,10.491,1,-3.16,1.23,18.89,-0.04,0.20,-9.93,30.00,-30.00,30.00,-30.00,30.00,1600.00,1676.70,1725.30,1620.00,1603.80,11.49,12.17,10.73,10.51,3.41,3.13,2.88,3.26
20220914,134057.000,45.43682800,12.35505000,-56.90,27.22,1.49900000,1,2.65,3.64,-113.19,-0.27,0.00,0.00,0.200,10.491,1,-3.16,1.23,18.89,-0.04,0.20,-9.93,30.00,-30.00,30.00,-30.00,30.00,1600.00,1684.80,1725.30,1620.00,1603.80,11.60,12.17,10.73,10.51,3.43,3.13,2.87,3.26
20220914,134057.000,45.43682800,12.35505000,-56.90,27.22,1.49900000,1,2.65,3.64,-113.19,-0.27,0.00,0.00,0.200,10.491,1,-3.16,1.23,18.89,-0.04,0.20,-9.93,30.00,-30.00,30.00,-30.00,30.00,1600.00,1684.80,1725.30,1620.00,1595.70,11.60,12.17,10.73,10.41,3.38,3.13,2.87,3.27
20220914,134057.249,45.43682700,12.35504700,-57.01,26.98,1.50100000,1,1.99,3.41,-107.30,-0.29,0.00,0.00,0.250,11.059,1,-0.86,-1.07,20.64,-0.28,-0.02,-9.69,30.00,-30.00,30.00,-30.00,30.00,1600.00,1684.80,1717.20,1620.00,1595.70,11.60,12.05,10.73,10.41,3.41,3.13,2.86,3.27
20220914,134057.249,45.43682700,12.35504700,-57.01,26.98,1.50100000,1,2.01,3.25,-105.29,-0.33,0.00,0.00,0.250,11.059,1,0.62,0.59,20.94,-0.07,-0.05,-9.63,30.00,-30.00,30.00,-30.00,30.00,1600.00,1692.90,1725.30,1628.10,1603.80,11.71,12.17,10.83,10.51,3.49,3.13,2.86,3.27
20220914,134057.499,45.43682600,12.35504400,-57.12,26.75,1.50200000,1,2.27,3.34,-101.29,-0.32,0.00,0.00,0.260,11.384,1,0.84,2.38,19.79,-0.08,-0.19,-9.89,30.00,-30.00,30.00,-30.00,30.00,1600.00,1684.80,1725.30,1628.10,1603.80,11.60,12.17,10.83,10.51,3.47,3.13,2.86,3.27
20220914,134057.499,45.43682600,12.35504400,-57.12,26.75,1.50200000,1,2.38,3.46,-99.37,-0.36,0.00,0.00,0.260,11.384,1,0.79,2.16,19.37,-0.53,0.06,-9.90,30.00,-30.00,30.00,-30.00,30.00,1600.00,1684.80,1725.30,1636.20,1603.80,11.60,12.17,10.94,10.51,3.46,3.14,2.86,3.26
